City,Cloudiness,Country,Date,Humidity,Latitude,Longitude,Max Temp,Wind Speed
saint anthony,90,US,1554672349,57,43.97,-111.68,53.01,23.04
avarua,32,CK,1554670800,74,-21.21,-159.78,82.4,17.22
tuktoyaktuk,90,CA,1554670800,78,69.44,-133.03,8.6,9.17
punta arenas,75,CL,1554670949,61,-53.16,-70.91,46.4,10.29
upernavik,20,GL,1554672548,83,72.79,-56.15,36.16,19.95
kindu,36,CD,1554672658,94,-2.95,25.92,73.69,1.95
clyde river,76,CA,1554670800,84,70.47,-68.59,8.6,9.17
hermanus,0,ZA,1554671828,93,-34.42,19.24,64.0,4.0
busselton,0,AU,1554672611,64,-33.64,115.35,50.0,12.46
norman wells,90,CA,1554667200,68,65.28,-126.83,28.4,6.93
pa daet,0,TH,1554670800,88,19.5,99.99,69.8,3.36
payo,36,ID,1554672659,96,-3.75,103.64,71.8,2.73
iqaluit,75,CA,1554670924,85,63.75,-68.52,23.0,26.4
tiarei,20,PF,1554670945,66,-17.53,-149.33,89.01,9.17
bandarbeyla,0,SO,1554672660,100,9.49,50.81,79.9,6.64
itarema,56,BR,1554672660,92,-2.92,-39.92,79.36,6.87
vaini,0,IN,1554672661,88,15.34,74.49,69.01,1.05
souillac,0,FR,1554672648,81,45.6,-0.6,46.4,1.12
victoria,75,BN,1554670800,94,5.28,115.24,80.01,5.19
puerto ayora,20,EC,1554671763,66,-0.74,-90.35,86.0,13.87
rikitea,88,PF,1554672662,100,-23.12,-134.97,77.2,6.42
ixtapa,5,MX,1554672629,54,20.71,-105.21,80.6,13.87
khatanga,24,RU,1554672662,72,71.98,102.47,8.44,10.78
bredasdorp,0,ZA,1554672655,93,-34.53,20.04,62.01,1.12
port hedland,44,AU,1554670800,100,-20.31,118.58,78.8,5.82
mogadishu,12,SO,1554672663,100,2.04,45.34,83.05,11.68
inuvik,40,CA,1554670800,52,68.36,-133.71,17.6,3.36
jamestown,0,AU,1554672635,81,-33.21,138.6,40.21,2.73
urubamba,40,PE,1554670800,91,-13.31,-72.12,68.0,10.29
barrow,0,AR,1554672664,32,-38.31,-60.23,80.62,9.1
mataura,0,NZ,1554672006,96,-46.19,168.86,46.0,3.62
ushuaia,75,AR,1554670800,77,-54.81,-68.31,42.8,14.99
saint-philippe,90,CA,1554672545,57,45.36,-73.48,52.0,10.29
port alfred,20,ZA,1554672407,87,-33.59,26.89,66.99,5.01
provideniya,0,RU,1554670800,67,64.42,-173.23,17.6,17.9
hithadhoo,56,MV,1554672665,100,-0.6,73.08,85.03,4.41
guymon,1,US,1554672209,22,36.68,-101.48,77.0,16.11
tiksi,56,RU,1554672530,76,71.64,128.87,21.58,11.34
medvezhyegorsk,56,RU,1554672665,79,62.92,34.47,24.37,2.28
sisimiut,92,GL,1554672547,88,66.94,-53.67,31.03,1.72
albany,75,US,1554672339,42,42.65,-73.75,66.99,5.82
bluff,0,AU,1554672549,85,-23.58,149.07,60.28,2.95
todos santos,5,MX,1554672664,44,23.45,-110.23,82.99,18.34
palestine,90,US,1554672618,100,31.76,-95.63,69.01,13.87
sergeyevka,0,KZ,1554672667,76,53.88,67.42,31.3,2.84
tolaga bay,0,NZ,1554672667,89,-38.37,178.3,54.52,5.41
hasaki,75,JP,1554672277,57,35.73,140.83,50.0,14.99
kandrian,92,PG,1554672667,100,-6.21,149.55,72.79,3.4
college,1,US,1554672606,36,64.86,-147.8,48.2,4.97
fremont,1,US,1554672447,60,37.55,-121.99,77.0,8.05
faanui,64,PF,1554672588,100,-16.48,-151.75,84.13,17.27
butaritari,56,KI,1554672559,100,3.07,172.79,81.16,12.68
krabi,20,TH,1554670800,100,8.06,98.92,78.8,1.12
mount gambier,90,AU,1554670800,100,-37.83,140.78,53.6,8.05
lebu,36,ET,1554672548,62,8.96,38.73,56.59,4.97
fort frances,90,CA,1554672604,100,48.61,-93.4,44.6,3.36
churapcha,8,RU,1554672669,80,62.0,132.43,20.14,6.76
alice springs,0,AU,1554670800,48,-23.7,133.88,60.8,3.36
stuttgart,0,DE,1554672665,76,48.78,9.18,54.0,6.93
severo-kurilsk,88,RU,1554672670,95,50.68,156.12,32.65,24.32
paamiut,8,GL,1554672670,93,61.99,-49.67,33.28,3.96
katsuura,75,JP,1554671100,93,33.93,134.5,52.0,4.7
lavrentiya,0,RU,1554672580,96,65.58,-170.99,13.75,38.74
bambous virieux,40,MU,1554672540,74,-20.34,57.76,80.6,12.75
rio grande,75,BR,1554670800,64,-32.03,-52.1,71.6,5.82
fengrun,8,CN,1554672671,32,39.83,118.12,38.95,10.0
constitucion,20,MX,1554672016,12,23.99,-104.67,75.2,4.7
ribeira grande,40,PT,1554667200,58,38.52,-28.7,57.2,18.34
lagoa,40,PT,1554672580,87,37.14,-8.45,60.8,9.17
evanston,75,US,1554672645,72,42.04,-87.69,69.01,8.05
port hardy,75,CA,1554667200,81,50.7,-127.42,50.0,13.87
yulara,20,AU,1554670800,42,-25.24,130.99,62.6,4.7
san ramon,40,NI,1554672643,45,12.92,-85.84,84.2,4.7
tornio,0,FI,1554672459,60,61.12,27.27,42.01,11.41
xuddur,8,SO,1554672558,45,4.12,43.89,77.83,7.65
pampa,1,US,1554671751,22,35.54,-100.96,80.6,13.87
trelew,92,AR,1554672501,34,-43.25,-65.31,78.19,6.53
hobart,40,AU,1554672374,61,-42.88,147.33,50.0,8.05
prata,80,BR,1554672674,96,-19.31,-48.92,73.87,4.18
kieta,76,PG,1554672674,100,-6.22,155.63,79.9,3.96
leningradskiy,36,RU,1554672675,95,69.38,178.42,2.77,3.18
mar del plata,92,AR,1554672675,88,-46.43,-67.52,52.0,8.77
bethel,1,US,1554670560,69,60.79,-161.76,35.6,12.75
wawa,56,NG,1554672675,80,9.9,4.41,81.43,6.76
vinh,20,VN,1554672430,94,18.67,105.69,74.05,1.83
kodiak,20,US,1554672523,64,39.95,-94.76,75.99,12.75
poronaysk,56,RU,1554672676,81,49.22,143.1,27.88,7.2
georgetown,20,GY,1554670800,66,6.8,-58.16,86.0,9.17
shetpe,88,KZ,1554672677,86,44.14,52.16,49.75,8.88
puteyets,80,RU,1554672677,93,65.17,57.09,30.94,2.73
mazamari,12,PE,1554672487,67,-11.33,-74.53,71.71,2.39
normandin,75,CA,1554670800,42,48.84,-72.53,26.6,6.93
hilo,1,US,1554672516,61,19.71,-155.08,80.6,11.41
east london,64,ZA,1554672409,100,-33.02,27.91,71.53,20.51
chapais,1,CA,1554670800,38,49.78,-74.86,26.6,6.93
cape town,0,ZA,1554672354,93,-33.93,18.42,64.0,3.36
kemptville,90,CA,1554672676,57,45.02,-75.64,53.01,8.05
nanortalik,8,GL,1554672679,98,60.14,-45.24,31.66,1.16
luderitz,0,NA,1554672665,88,-26.65,15.16,59.2,14.25
saskylakh,32,RU,1554672679,69,71.97,114.09,11.14,9.44
new norfolk,20,AU,1554672554,66,-42.78,147.06,50.0,6.93
alice town,0,BS,1554672680,98,25.72,-79.3,77.83,14.58
dikson,48,RU,1554672680,100,73.51,80.55,13.21,5.53
grindavik,75,IS,1554672117,100,63.84,-22.43,39.99,6.93
atuona,24,PF,1554672680,98,-9.8,-139.03,82.69,15.48
tasiilaq,92,GL,1554670200,59,65.61,-37.64,33.8,26.4
cidreira,92,BR,1554672608,96,-30.17,-50.22,68.83,8.32
tucumcari,1,US,1554672618,25,35.17,-103.73,78.8,12.75
airai,0,TL,1554672681,89,-8.93,125.41,66.49,1.39
qaanaaq,80,GL,1554672595,88,77.48,-69.36,22.39,13.13
aripuana,44,BR,1554672682,78,-9.17,-60.63,82.15,2.39
mollendo,0,PE,1554672682,60,-17.03,-72.02,74.86,3.74
kruisfontein,20,ZA,1554672572,77,-34.0,24.73,67.03,15.48
cabedelo,40,BR,1554670800,83,-6.97,-34.84,80.6,6.93
yellowknife,90,CA,1554672169,86,62.45,-114.38,28.99,10.29
port blair,0,IN,1554672683,100,11.67,92.75,84.31,2.95
erzin,75,TR,1554672519,77,36.95,36.2,61.0,9.17
vanderhoof,24,CA,1554672683,44,54.02,-124.02,48.4,4.63
arraial do cabo,0,BR,1554670800,88,-22.97,-42.02,80.6,6.93
pingliang,92,CN,1554672397,48,35.54,106.68,54.88,3.51
yumen,92,CN,1554672615,74,40.29,97.04,42.37,15.59
sao filipe,0,CV,1554672580,95,14.9,-24.5,71.8,15.82
braco do norte,92,BR,1554672684,100,-28.27,-49.17,64.6,3.06
juneau,90,US,1554670560,75,58.3,-134.42,46.4,19.46
lompoc,1,US,1554672555,60,34.64,-120.46,80.6,16.11
melita,0,CA,1554672505,38,49.27,-100.98,63.0,13.0
port macquarie,36,AU,1554672605,72,-31.43,152.91,64.99,8.05
despotovac,8,RS,1554672685,65,44.1,21.44,50.65,8.88
kahului,20,US,1554672284,54,20.89,-156.47,82.4,12.75
acari,48,BR,1554672686,68,-6.44,-36.64,78.55,10.11
tuatapere,0,NZ,1554672608,94,-46.13,167.69,46.99,5.19
naze,40,NG,1554667200,94,5.43,7.07,80.6,4.7
usinsk,76,RU,1554672577,92,66.0,57.56,24.91,2.95
nikolskoye,0,RU,1554672336,48,59.7,30.79,42.8,8.95
tongzi,8,CN,1554672687,70,28.78,105.09,65.23,5.41
bandhi,0,PK,1554670800,41,26.59,68.3,78.8,5.19
longyearbyen,20,NO,1554670200,78,78.22,15.63,8.6,4.7
mamallapuram,20,IN,1554670800,83,12.63,80.17,84.2,5.82
catarama,80,EC,1554672687,96,-1.57,-79.48,69.1,2.62
beausejour,90,CA,1554672617,87,50.06,-96.51,46.99,10.29
san rafael del sur,20,NI,1554670800,41,11.85,-86.44,95.0,11.41
schroeder,75,BR,1554672396,100,-26.41,-49.07,72.0,4.7
manzanillo,76,CU,1554672688,90,20.34,-77.12,84.31,2.06
maues,76,BR,1554672689,92,-3.38,-57.72,77.83,2.84
lunca,0,RO,1554672689,84,45.97,22.87,44.8,1.72
klaksvik,64,FO,1554670200,65,62.23,-6.59,41.0,12.75
rawson,92,AR,1554672660,34,-43.3,-65.11,78.19,6.53
qiongshan,0,CN,1554670800,94,20.01,110.35,75.2,4.47
katobu,32,ID,1554672690,96,-4.94,122.53,82.33,4.41
meulaboh,64,ID,1554672690,100,4.14,96.13,80.08,3.06
pedernales,8,EC,1554672690,53,0.07,-80.05,87.28,6.53
lixourion,92,GR,1554671769,89,38.2,20.43,54.0,7.31
miri,100,NG,1554672691,29,10.31,9.75,89.71,5.19
abu dhabi,0,AE,1554670800,35,24.47,54.37,87.8,8.05
sitka,0,US,1554671789,30,37.17,-99.65,75.0,11.99
mastic beach,1,US,1554672687,66,40.77,-72.85,60.01,11.41
akhtanizovskaya,36,RU,1554670800,66,45.32,37.1,55.4,20.13
saldanha,92,PT,1554672692,97,41.42,-6.55,46.78,8.66
margate,20,AU,1554672674,66,-43.03,147.26,52.0,6.93
hualmay,12,PE,1554672692,65,-11.1,-77.61,76.3,4.97
dossor,92,KZ,1554672693,71,47.52,52.98,51.28,8.77
necochea,0,AR,1554672693,44,-38.55,-58.74,78.55,7.65
sambava,80,MG,1554672693,100,-14.27,50.17,78.82,10.78
tunduma,32,ZM,1554672693,85,-9.31,32.77,67.48,8.66
road town,40,VG,1554672432,61,18.42,-64.62,82.4,9.17
namatanai,48,PG,1554672694,100,-3.66,152.44,79.27,9.66
natal,40,BR,1554670800,83,-5.81,-35.21,82.4,6.93
marsh harbour,8,BS,1554672694,99,26.54,-77.06,77.56,11.12
fez,20,MA,1554670800,87,34.03,-5.02,53.6,6.93
kaitangata,0,NZ,1554672590,76,-46.28,169.85,51.01,3.0
gimli,88,CA,1554672617,93,50.63,-96.99,45.0,5.01
ramsar,90,IR,1554670800,93,36.92,50.64,53.6,3.62
torbay,90,CA,1554672683,74,47.66,-52.73,35.01,11.41
chokurdakh,64,RU,1554672695,75,70.62,147.9,11.77,3.18
zemio,0,CF,1554672696,87,5.02,25.13,72.97,4.18
mongoumba,44,CD,1554672696,92,3.64,18.59,76.21,3.96
ostrovnoy,68,RU,1554672613,86,68.05,39.51,24.28,7.99
nantucket,1,US,1554672675,81,41.28,-70.1,53.6,9.17
zaozerne,0,UA,1554672697,81,51.37,23.94,47.14,5.97
ikom,44,NG,1554672697,79,5.96,8.72,79.72,7.99
tilichiki,8,RU,1554672697,83,60.47,166.1,20.59,3.74
maldonado,0,UY,1554670800,68,-34.91,-54.96,66.2,6.93
biak,8,ID,1554672550,98,-0.91,122.88,78.01,0.38
carnarvon,76,ZA,1554672698,73,-30.97,22.13,58.66,10.56
kwekwe,12,ZW,1554672698,60,-18.93,29.81,66.13,9.89
brae,0,GB,1554670200,65,60.4,-1.35,42.8,26.4
san patricio,0,PY,1554672639,63,-26.98,-56.83,72.61,4.41
mitsamiouli,20,KM,1554670800,88,-11.38,43.28,80.6,9.22
fairbanks,1,US,1554672606,36,64.84,-147.72,48.2,4.97
coihueco,12,CL,1554670800,30,-36.63,-71.83,84.2,5.82
bo phloi,0,TH,1554672575,64,14.32,99.52,86.0,2.62
champerico,40,MX,1554669960,22,16.38,-93.6,98.6,6.93
cherskiy,0,RU,1554672617,63,68.75,161.3,9.16,2.39
kulhudhuffushi,48,MV,1554672700,100,6.62,73.07,81.16,2.28
san clemente,1,US,1554672542,56,33.43,-117.61,84.0,5.82
tual,0,ID,1554672701,99,-5.67,132.75,83.68,5.64
kapaa,40,US,1554672695,65,22.08,-159.32,79.0,8.05
grand gaube,40,MU,1554672540,74,-20.01,57.66,80.6,12.75
vila do maio,75,CV,1554670800,73,15.13,-23.22,71.6,18.34
praia da vitoria,40,PT,1554672686,76,38.73,-27.07,55.4,24.09
yuzhno-kurilsk,0,RU,1554672702,98,44.03,145.86,33.1,19.28
sorong,56,ID,1554672617,100,-0.86,131.25,82.06,2.95
san cristobal,75,EC,1554672640,64,-0.39,-78.55,68.0,10.29
ulaanbaatar,75,MN,1554672600,58,47.92,106.92,28.4,6.71
vostok,32,RU,1554672703,74,46.45,135.83,17.08,1.95
tsumeb,56,NA,1554672703,71,-19.25,17.72,67.03,12.8
touros,20,BR,1554670800,78,-5.2,-35.46,82.4,6.93
quepos,75,CR,1554672692,54,9.43,-84.16,78.8,13.87
castro,40,CL,1554670800,72,-42.48,-73.76,66.2,8.05
mankato,90,US,1554672428,77,44.16,-94.0,62.6,10.29
marawi,36,PH,1554671741,89,8.0,124.29,77.0,3.0
mbandaka,12,CD,1554672704,100,0.05,18.26,73.15,2.17
cabo san lucas,5,MX,1554672313,44,22.89,-109.91,82.99,6.93
rosarito,40,CO,1554670800,74,4.91,-75.23,78.8,5.82
kroya,48,ID,1554672705,94,-6.5,108.06,72.79,3.62
egvekinot,12,RU,1554672705,78,66.32,-179.17,7.81,7.65
belmonte,92,PT,1554671773,86,40.36,-7.35,51.01,5.01
umea,90,SE,1554670200,74,63.83,20.26,33.8,17.22
katangli,88,RU,1554672706,92,51.71,143.23,28.87,8.77
krasnoarmeysk,0,RU,1554672368,60,56.12,38.15,41.0,4.47
catumbela,0,AO,1554672706,95,-12.43,13.55,71.35,1.05
sharqpur,75,PK,1554670500,50,31.46,74.1,75.2,6.93
vao,68,EE,1554672586,82,59.1,26.19,43.18,7.43
atar,0,MR,1554672707,26,20.52,-13.05,67.75,7.2
santiago del estero,0,AR,1554672633,50,-27.8,-64.26,78.1,7.76
lasa,0,CY,1554671803,82,34.92,32.53,62.6,5.82
mao,40,DO,1554672658,45,19.55,-71.08,88.0,13.87
ardatov,0,RU,1554672708,74,55.24,43.1,27.07,4.52
coquimbo,75,CL,1554670800,82,-29.95,-71.34,60.8,10.29
huarmey,12,PE,1554672708,57,-10.07,-78.15,77.02,3.74
huntington,90,US,1554672703,88,38.42,-82.45,69.01,3.36
gat,0,SN,1554670800,29,14.69,-16.54,89.6,4.7
samarai,88,PG,1554672709,100,-10.62,150.67,76.48,1.95
nizhniy kuranakh,80,RU,1554672709,81,58.84,125.49,21.31,2.39
lowestoft,8,GB,1554672636,100,52.48,1.75,48.99,3.36
belyy yar,0,RU,1554670800,58,53.6,91.39,28.4,11.18
thompson,90,CA,1554667200,45,55.74,-97.86,24.8,12.75
gacko,75,BA,1554670800,93,43.17,18.53,53.6,5.82
springbok,0,ZA,1554672710,92,-29.67,17.88,50.11,5.19
mossendjo,88,CG,1554672710,95,-2.95,12.72,70.36,2.17
lata,24,IN,1554672532,79,30.78,78.62,45.25,2.51
el rusio,12,HN,1554672711,45,14.47,-86.37,83.77,4.74
hobyo,0,SO,1554672711,91,5.35,48.53,76.93,7.2
yerofey pavlovich,0,RU,1554672711,55,53.97,121.97,22.21,4.97
barraute,75,CA,1554670800,34,48.43,-77.63,35.6,8.05
esperance,20,TT,1554672308,55,10.24,-61.45,86.0,12.75
preston,12,GB,1554672598,76,53.76,-2.71,53.6,8.05
syracuse,1,US,1554672694,55,43.05,-76.15,66.99,3.36
ancud,40,CL,1554670800,72,-41.87,-73.83,66.2,8.05
nador,56,MA,1554670800,67,35.17,-2.93,60.8,3.36
mbaiki,44,CF,1554672713,82,3.87,17.99,76.21,3.18
tavda,24,RU,1554672713,75,58.04,65.27,28.06,4.63
nizhniy tsasuchey,20,RU,1554672714,68,50.52,115.13,15.91,3.29
pacific grove,1,US,1554672551,59,36.62,-121.92,78.01,5.82
caconda,44,AO,1554672714,95,-13.73,15.06,60.73,2.73
nioaque,20,BR,1554672714,76,-21.16,-55.83,75.49,4.74
coria,92,ES,1554667565,95,39.98,-6.54,53.01,2.62
kenai,90,US,1554672459,49,60.55,-151.26,51.01,10.29
dingle,44,PH,1554672715,90,11.0,122.67,76.57,10.22
namibe,0,AO,1554672715,100,-15.19,12.15,77.02,7.76
fortuna,20,ES,1554672711,45,38.18,-1.13,62.6,6.93
tarnobrzeg,0,PL,1554672678,93,50.57,21.68,48.99,1.12
saint-augustin,0,FR,1554672448,87,44.83,-0.61,50.0,2.24
swindon,90,GB,1554672664,100,51.56,-1.79,52.0,2.95
pevek,36,RU,1554672716,100,69.7,170.27,-0.3,5.86
aykhal,64,RU,1554672716,77,65.95,111.51,16.09,4.07
buala,48,SB,1554672716,100,-8.15,159.59,79.09,2.39
los llanos de aridane,75,ES,1554672626,72,28.66,-17.92,64.4,2.24
kavieng,80,PG,1554672617,100,-2.57,150.8,79.81,5.97
singaraja,24,ID,1554672717,100,-8.11,115.08,71.35,0.6
mayo,90,CA,1554670980,80,63.59,-135.9,33.8,8.05
riohacha,32,CO,1554672584,70,11.54,-72.91,86.47,12.46
khovu-aksy,24,RU,1554672718,66,51.13,93.72,17.44,4.41
leh,80,IN,1554672718,87,34.16,77.58,9.25,1.05
hunchun,12,CN,1554672718,51,42.86,130.36,35.53,6.53
thinadhoo,12,MV,1554672526,100,0.53,72.93,83.86,1.28
poum,92,MK,1554672650,96,41.28,20.71,46.69,1.28
businga,56,CD,1554672719,76,3.34,20.89,78.55,4.85
velykoploske,0,UA,1554672289,50,47.02,29.68,53.01,4.7
geraldton,90,CA,1554670800,77,49.72,-86.95,32.0,23.04
sauk rapids,90,US,1554672537,87,45.59,-94.17,60.8,13.87
faya,0,SA,1554670800,51,18.39,42.45,64.4,2.51
eenhana,32,NA,1554670800,32,-17.48,16.34,84.2,9.17
taitung,36,TW,1554672512,100,22.76,121.15,68.38,7.43
dwarka,75,IN,1554672608,53,28.58,77.04,84.99,4.7
khuzhir,24,RU,1554672720,76,53.19,107.35,14.56,4.97
teguldet,24,RU,1554672721,89,57.31,88.17,21.76,4.74
skibbereen,75,IE,1554670800,93,51.55,-9.27,46.4,12.75
potosi,88,BO,1554672534,37,-19.59,-65.75,54.25,3.51
bilibino,0,RU,1554672722,75,68.06,166.44,10.69,2.39
mandurah,0,AU,1554672686,76,-32.55,115.7,59.0,8.05
biankouma,56,CI,1554672722,94,7.74,-7.61,72.61,2.95
urambo,80,TZ,1554672722,42,-5.07,32.07,78.64,3.62
saint george,75,GR,1554672209,71,39.45,22.34,59.0,5.82
broken hill,0,AU,1554670800,58,-31.97,141.45,57.2,3.4
voznesenye,0,RU,1554672723,69,61.02,35.48,25.45,4.74
hamilton,75,BM,1554671768,83,32.3,-64.78,71.6,6.93
scarborough,0,GB,1554672722,93,54.28,-0.41,46.99,10.29
bima,0,ID,1554672724,100,-8.45,118.73,73.78,3.62
kununurra,44,AU,1554670800,88,-15.77,128.74,78.8,3.36
artigas,0,BR,1554672724,64,-30.4,-56.46,73.51,6.64
cooma,0,AU,1554670800,76,-36.24,149.13,48.2,4.7
galle,90,US,1554672724,68,29.74,-97.91,73.99,12.75
dawei,8,MM,1554672725,95,14.07,98.19,74.68,2.17
khandyga,12,RU,1554672725,79,62.65,135.58,15.1,2.51
south venice,1,US,1554672715,74,27.05,-82.42,89.01,6.93
kuytun,24,RU,1554672726,73,54.34,101.51,26.26,5.41
quimperle,20,FR,1554672689,93,47.87,-3.55,46.99,3.36
veraval,56,FR,1554672702,81,49.65,0.71,50.0,4.7
minna,36,NG,1554672727,70,9.62,6.55,80.26,1.5
aljezur,88,PT,1554672719,92,37.31,-8.8,60.01,15.7
sabang,0,PH,1554672542,96,13.72,123.58,75.76,5.19
sao joao da barra,0,BR,1554670800,74,-21.64,-41.05,82.4,16.11
tezu,100,IN,1554672727,69,27.93,96.16,57.76,1.95
omaha,40,US,1554672482,53,41.26,-95.94,73.4,12.75
ponta do sol,92,BR,1554672535,93,-20.63,-46.0,69.46,2.62
zaraza,36,VE,1554672728,43,9.35,-65.33,89.8,13.58
la grande,90,US,1554672716,87,45.32,-118.09,61.0,4.7
abha,0,SA,1554670800,51,18.22,42.5,64.4,3.4
ternate,75,PH,1554672719,74,14.29,120.72,82.4,4.7
udachnyy,8,RU,1554672729,77,66.42,112.4,17.8,4.63
gonbad-e qabus,90,IR,1554670800,100,37.25,55.17,55.4,6.93
honiara,76,SB,1554672729,98,-9.43,159.96,76.84,2.51
burns lake,76,CA,1554672730,47,54.23,-125.76,43.9,7.65
nanzhang,0,CN,1554672730,71,31.78,111.84,59.65,3.4
ukiah,75,US,1554672610,63,39.15,-123.21,66.99,9.17
port elizabeth,1,US,1554672718,52,39.31,-74.98,72.0,11.41
port lincoln,92,AU,1554672628,96,-34.72,135.86,63.79,16.82
vardo,75,US,1554672726,56,39.62,-77.74,70.0,16.11
isangel,0,VU,1554672707,100,-19.55,169.27,77.29,10.11
bouafle,75,FR,1554672725,71,48.96,1.9,53.6,3.36
honningsvag,75,NO,1554670200,68,70.98,25.97,28.4,10.29
yarensk,92,RU,1554672732,99,62.17,49.09,34.9,4.07
dalby,0,AU,1554672035,100,-27.18,151.26,64.99,8.05
pisco,0,PE,1554670800,30,-13.71,-76.2,71.6,6.93
boulder,1,US,1554672607,15,40.02,-105.27,73.4,16.11
codrington,40,AU,1554672463,100,-28.95,153.24,66.99,8.05
prince george,1,CA,1554672318,49,53.92,-122.75,54.0,10.29
kondoa,0,TZ,1554672733,61,-4.91,35.78,69.73,9.33
bahia honda,36,CU,1554672734,62,22.9,-83.16,83.5,2.95
abapo,0,BO,1554672734,59,-18.83,-63.47,70.18,2.39
sol-iletsk,56,RU,1554672734,70,51.16,55.0,44.17,8.43
nome,1,US,1554672693,93,30.04,-94.42,66.2,8.05
kabanjahe,44,ID,1554672734,100,3.1,98.49,66.85,1.39
wodonga,0,AU,1554672675,87,-36.12,146.89,55.0,2.73
kapustin yar,76,RU,1554672735,99,48.58,45.77,50.2,6.98
romny,56,UA,1554672735,60,50.74,33.49,51.46,12.68
wukari,48,NG,1554672735,82,7.87,9.78,80.26,5.97
ilulissat,24,GL,1554672736,83,69.22,-51.1,32.38,3.74
west helena,92,US,1554672692,93,34.55,-90.64,69.01,11.68
hambantota,0,LK,1554671400,100,6.12,81.12,78.8,3.36
beringovskiy,36,RU,1554672736,92,63.05,179.32,10.33,25.88
acapulco,75,MX,1554670200,78,16.86,-99.88,80.6,10.29
la ronge,90,CA,1554670800,86,55.1,-105.3,28.4,11.41
the valley,20,AI,1554671728,65,18.22,-63.06,81.0,13.87
suez,88,EG,1554672737,86,29.97,32.54,62.98,2.95
cockburn town,0,TC,1554672612,97,21.46,-71.14,79.09,16.37
nurota,100,UZ,1554669000,77,40.56,65.69,62.6,6.93
jardim,0,BR,1554672738,58,-21.48,-56.15,74.41,7.76
dunedin,0,NZ,1554672626,70,-45.87,170.5,57.0,17.0
black river,20,JM,1554672716,70,18.03,-77.85,84.2,23.04
thanh hoa,20,VN,1554670800,94,10.21,106.33,77.0,4.41
byron bay,12,AU,1554672616,88,-28.65,153.62,73.99,3.36
hulan ergi,0,CN,1554672739,70,47.2,123.63,29.23,10.22
bonavista,56,CA,1554671778,84,48.65,-53.11,33.01,8.01
yar-sale,24,RU,1554672739,85,66.83,70.83,23.02,11.68
back mountain,40,US,1554672735,45,41.34,-76.0,68.0,4.7
turiacu,76,BR,1554672740,82,-5.01,-63.0,83.5,3.06
lindi,32,TZ,1554672740,93,-10.0,39.71,73.96,3.74
parati,75,BR,1554670800,83,-20.51,-54.63,71.6,6.93
antequera,80,PY,1554672741,76,-24.09,-57.2,73.69,5.64
chinandega,0,NI,1554672532,37,12.63,-87.13,94.48,8.55
manbij,40,SY,1554670200,81,36.53,37.96,54.0,3.36
moose factory,20,CA,1554670800,56,51.26,-80.61,15.8,14.99
sainte-anne-des-monts,48,CA,1554672742,100,49.13,-66.49,24.01,17.49
camacha,20,PT,1554670800,63,33.08,-16.33,62.6,12.75
progreso,0,UY,1554672650,68,-34.68,-56.22,68.0,4.7
glubczyce,0,PL,1554672484,81,50.2,17.83,50.0,3.4
santana do mundau,75,BR,1554670800,83,-9.17,-36.22,78.8,6.93
shirokiy,56,RU,1554672610,70,53.87,39.17,34.0,2.95
petropavlovsk-kamchatskiy,40,RU,1554670800,64,53.05,158.65,33.8,8.95
half moon bay,75,US,1554672633,72,37.46,-122.43,75.99,6.93
aleksandrovskoye,0,RU,1554672683,74,56.74,85.39,33.01,6.71
togur,0,RU,1554672744,78,58.36,82.83,21.58,7.99
bathsheba,75,BB,1554670800,65,13.22,-59.52,80.6,19.46
halifax,40,CA,1554672365,45,44.65,-63.58,51.01,20.8
abu samrah,92,SY,1554672744,90,35.3,37.18,57.04,3.62
chuy,0,UY,1554672744,83,-33.69,-53.46,69.19,3.74
aksu,0,KZ,1554670800,85,52.04,76.93,23.0,6.71
maniitsoq,92,GL,1554672745,93,65.42,-52.9,31.57,1.16
bloomsburg,40,US,1554672717,45,41.0,-76.45,69.01,4.7
loganville,40,US,1554672745,54,33.84,-83.9,80.6,3.36
ambilobe,48,MG,1554672746,79,-13.19,49.05,78.1,5.97
koslan,44,RU,1554672746,78,63.46,48.9,25.45,2.39
pangnirtung,90,CA,1554667200,63,66.15,-65.72,26.6,6.93
mehamn,75,NO,1554670200,58,71.03,27.85,28.4,14.99
richards bay,56,ZA,1554672528,96,-28.77,32.06,64.78,2.62
mackay,75,CA,1554670800,23,53.65,-115.58,53.6,12.75
hirara,0,JP,1554672690,99,24.8,125.28,75.67,2.39
lorengau,92,PG,1554672747,100,-2.02,147.27,80.17,3.62
bundaberg,8,AU,1554672616,82,-24.87,152.35,72.0,8.05
olinda,75,EC,1554672657,58,-2.03,-79.75,91.99,3.36
nijar,0,ES,1554672731,67,36.97,-2.21,63.0,11.41
tura,24,IN,1554672710,94,25.52,90.21,63.79,5.53
shepsi,24,RU,1554672748,81,44.04,39.15,55.6,7.87
omboue,56,GA,1554672748,100,-1.57,9.26,83.86,5.41
linxia,8,CN,1554672748,87,35.6,103.21,32.11,2.84
shache,32,CN,1554672623,69,38.42,77.24,44.26,1.61
yerbogachen,76,RU,1554672749,74,61.28,108.01,27.43,6.42
zaraysk,24,RU,1554672728,70,54.76,38.88,30.0,8.01
maneromango,20,TZ,1554667200,94,-7.2,38.78,77.0,6.93
aldan,80,RU,1554672749,81,58.61,125.39,21.31,2.39
jinchang,68,CN,1554672749,76,38.52,102.19,39.13,2.84
juruti,68,BR,1554672750,80,-2.16,-56.09,83.86,2.06
hofn,88,IS,1554672728,100,64.25,-15.21,36.52,15.37
duku,24,NG,1554672750,45,11.24,4.91,84.76,4.52
moree,0,AU,1554671828,63,-29.46,149.84,70.0,8.05
santa cecilia,88,CO,1554672751,94,5.35,-76.12,69.28,2.17
ambulu,68,ID,1554672751,100,-8.35,113.61,78.37,3.62
muros,75,ES,1554672735,100,42.77,-9.06,57.0,5.82
itaueira,56,BR,1554672752,82,-7.6,-43.03,79.36,2.84
ahipara,76,NZ,1554672584,85,-35.17,173.16,63.52,15.93
iskilip,24,TR,1554672752,79,40.73,34.47,43.54,1.05
rocha,0,UY,1554672596,66,-34.48,-54.34,68.74,3.18
preeceville,0,CA,1554672752,63,51.95,-102.67,49.84,8.21
mujiayingzi,0,CN,1554672753,49,42.12,118.78,24.64,4.29
guerrero negro,0,MX,1554672753,48,27.97,-114.04,77.74,13.02
saint-francois,90,FR,1554672642,93,46.42,3.91,46.4,2.24
san juan,75,PH,1554672719,74,14.6,121.03,82.4,4.7
gueret,0,FR,1554672667,81,46.17,1.87,48.0,4.7
araouane,0,ML,1554672754,24,18.9,-3.53,69.28,7.99
boljevac,0,RS,1554670800,62,43.83,21.96,53.6,5.82
holme,0,GB,1554672753,81,53.7,-2.31,53.6,6.93
gushikawa,20,JP,1554671160,93,26.35,127.87,73.4,6.87
nha trang,20,VN,1554670800,88,12.24,109.19,77.0,3.36
calderitas,40,MX,1554669660,66,18.55,-88.26,86.0,18.34
nuuk,40,GL,1554670200,60,64.17,-51.74,39.2,2.24
tombouctou,0,ML,1554672756,17,16.77,-3.01,79.18,9.78
kotma,64,IN,1554672756,64,23.2,81.98,70.99,3.06
nargana,12,PA,1554672756,100,9.44,-78.59,81.34,11.45
caceres,48,CO,1554672756,73,5.53,-74.53,77.56,0.16
tazovskiy,92,RU,1554672644,93,67.47,78.7,28.06,9.55
kongoussi,20,BF,1554672757,22,13.32,-1.53,86.2,10.45
cayenne,75,GF,1554670800,83,4.94,-52.33,78.8,6.93
hami,88,CN,1554672757,68,42.84,93.51,43.45,1.39
sassandra,12,CI,1554672757,94,4.95,-6.09,83.95,16.49
carauari,92,BR,1554672678,98,-4.88,-66.9,73.15,5.86
waipawa,92,NZ,1554672017,96,-39.94,176.59,52.0,10.11
westport,12,IE,1554672723,80,53.8,-9.52,48.0,18.01
golden,75,CA,1554670800,49,51.3,-116.96,48.2,11.41
okato,44,NZ,1554672555,63,-39.19,173.88,64.99,8.99
murdochville,48,CA,1554672759,57,48.96,-65.49,21.31,19.17
ermelo,20,NL,1554672752,66,52.3,5.62,59.0,5.82
nouadhibou,0,MR,1554670800,72,20.93,-17.03,66.2,14.99
billings,75,US,1554672718,34,45.79,-108.5,64.4,16.11
basco,75,US,1554672710,53,40.33,-91.2,77.0,13.87
campoverde,40,IT,1554672724,76,41.54,12.73,53.01,1.12
puerto escondido,40,MX,1554669720,70,15.86,-97.07,84.2,11.41
viedma,0,AR,1554672749,26,-40.81,-62.99,84.58,2.28
daru,92,SL,1554672761,97,7.99,-10.85,72.7,6.76
namie,75,JP,1554672705,60,37.52,140.86,42.01,4.7
kapit,64,MY,1554672761,97,2.02,112.94,73.87,2.39
talnakh,88,RU,1554672667,91,69.49,88.39,18.16,12.46
karachi,0,PK,1554670500,78,24.87,67.03,78.8,5.82
paragominas,92,BR,1554672762,88,-3.0,-47.35,79.0,3.06
narsaq,88,GL,1554670200,88,60.91,-46.05,32.0,3.36
arlit,0,NE,1554672741,18,18.74,7.39,76.48,7.65
talakan,12,RU,1554672762,82,50.29,130.28,20.68,2.28
mahebourg,40,MU,1554672540,74,-20.41,57.7,80.6,12.75
acajutla,56,SV,1554672642,57,13.59,-89.83,84.67,4.97
awbari,0,LY,1554672763,31,26.59,12.77,67.66,10.67
evensk,0,RU,1554672763,95,61.92,159.24,24.01,18.39
mudbidri,40,IN,1554670800,74,13.08,74.98,84.2,3.36
gagino,32,RU,1554672728,70,54.27,39.54,34.0,2.84
murgab,44,TM,1554670800,87,37.5,61.97,59.0,4.7
penticton,40,CA,1554672306,50,49.49,-119.59,55.4,13.87
alnashi,88,RU,1554672765,96,56.18,52.48,33.64,7.43
haapiti,20,PF,1554670945,66,-17.57,-149.87,89.01,9.17
hervey bay,8,AU,1554670800,82,-25.3,152.85,66.2,8.05
san quintin,0,PH,1554672550,82,17.54,120.52,67.93,3.18
mathathane,8,BW,1554672766,72,-22.27,28.75,72.61,12.8
deputatskiy,0,RU,1554672766,52,69.3,139.9,-0.84,2.73
komsomolskiy,92,RU,1554672766,86,67.55,63.78,25.36,6.98
paita,0,PE,1554670800,290,-5.09,-81.11,62.6,9.17
baruun-urt,0,MN,1554672767,55,46.68,113.28,9.7,4.97
kidal,0,ML,1554672665,17,18.44,1.41,73.78,10.33
ajdabiya,0,LY,1554672767,56,30.75,20.22,62.53,8.43
salalah,20,OM,1554670200,83,17.01,54.1,78.8,3.36
turukhansk,92,RU,1554672767,89,65.8,87.96,23.56,16.49
portland,90,US,1554672254,81,45.52,-122.67,55.0,5.82
maragogi,64,BR,1554672539,90,-9.01,-35.22,79.27,6.53
kaeo,8,NZ,1554671285,85,-35.1,173.78,59.0,3.0
lazaro cardenas,20,MX,1554672524,23,28.39,-105.62,77.0,9.17
lakatoro,0,VU,1554672769,90,-16.11,167.42,80.26,8.43
shahreza,80,IR,1554672769,76,32.01,51.87,39.31,3.18
riyadh,40,SA,1554670800,44,24.63,46.72,77.0,10.29
la orilla,0,MX,1554672769,64,18.0,-102.23,84.04,7.65
shubarkuduk,80,KZ,1554672770,89,49.15,56.49,43.27,10.67
kytmanovo,0,RU,1554672770,70,53.46,85.45,14.83,2.95
vuktyl,92,RU,1554672770,94,63.86,57.31,34.36,5.97
ust-nera,80,RU,1554672771,89,64.57,143.24,18.7,2.62
bonthe,76,SL,1554672771,78,7.53,-12.5,81.88,4.18
zabid,0,YE,1554672771,84,14.2,44.5,47.95,2.62
shaunavon,36,CA,1554672771,36,49.65,-108.41,55.78,17.27
swan hill,32,AU,1554672772,84,-35.34,143.56,50.38,6.42
lieksa,32,FI,1554672772,80,63.32,30.02,26.98,2.39
bowen,8,AU,1554672678,93,-20.01,148.25,71.01,6.93
broome,12,GB,1554672640,100,52.47,1.45,46.99,3.36
sindor,92,RU,1554672773,97,62.87,51.9,34.27,4.29
kovur,20,IN,1554672773,69,14.5,79.99,75.04,4.41
nabire,92,ID,1554672765,99,-3.36,135.5,67.93,2.17
general roca,0,AR,1554670800,23,-39.03,-67.58,87.8,2.24
sistranda,20,NO,1554672644,74,63.73,8.83,37.0,2.24
bereda,75,ES,1554672605,93,43.27,-7.54,54.0,6.93
simdega,48,IN,1554672774,86,22.61,84.51,65.14,1.83
lurgan,0,GB,1554672605,93,54.46,-6.33,48.99,5.82
harer,90,US,1554672721,71,42.19,-111.17,57.0,6.93
ponta delgada,20,PT,1554672542,54,37.73,-25.67,57.2,14.99
novikovo,12,UA,1554672775,93,45.05,34.56,43.9,2.84
miranda,40,CO,1554670800,62,3.25,-76.23,84.2,8.05
mareeba,40,AU,1554672665,83,-16.99,145.42,73.99,11.41
miyako,75,JP,1554672556,82,33.63,130.94,57.2,5.82
bad wildbad,75,DE,1554672761,87,48.75,8.55,54.0,13.87
lahij,0,YE,1554672776,76,13.06,44.88,65.86,2.17
willowmore,24,ZA,1554672776,84,-33.3,23.49,53.53,2.17
sinnamary,80,GF,1554672611,94,5.38,-52.96,80.44,12.01
baykit,8,RU,1554672743,83,61.68,96.39,14.83,6.31
san jeronimo,68,PE,1554672777,47,-13.65,-73.37,59.83,2.51
awjilah,0,LY,1554672777,44,29.14,21.3,70.0,8.21
nandyal,0,IN,1554672777,64,15.47,78.48,73.6,4.41
gainesville,1,US,1554672544,48,29.65,-82.33,87.8,5.82
chivilcoy,0,AR,1554672778,43,-34.9,-60.02,75.13,3.96
vanavara,0,RU,1554672778,74,60.35,102.28,23.2,7.31
haines junction,8,CA,1554672778,81,60.75,-137.51,36.16,3.29
